{"businesses": [{"id": "Ohi-o00luDtU7TMpVtJHJw", "alias": "blossom-new-york-3", "name": "Blossom", "image_url": "https://s3-media2.fl.yelpcdn.com/bphoto/4mqEl_LbRXSao9mNRIY0Gg/o.jpg", "is_closed": false, "url": "https://www.yelp.com/biz/blossom-new-york-3?adjust_creative=ZAJEiuIkp18KiB4opbwJtQ&utm_campaign=yelp_api_v3&utm_medium=api_v3_business_search&utm_source=ZAJEiuIkp18KiB4opbwJtQ", "review_count": 1039, "categories": [{"alias": "vegan", "title": "Vegan"}], "rating": 4.0, "coordinates": {"latitude": 40.745513, "longitude": -74.002365}, "transactions": ["pickup", "delivery"], "price": "$$$", "location": {"address1": "187 9th Ave", "address2": "", "address3": "", "city": "New York", "zip_code": "10011", "country": "US", "state": "NY", "display_address": ["187 9th Ave", "New York, NY 10011"]}, "phone": "+12126271144", "display_phone": "(212) 627-1144", "distance": 387.26824639626597}, {"id": "h0PVO3fYw37f7VUH4UA3jQ", "alias": "xyst-new-york-2", "name": "XYST", "image_url": "https://s3-media4.fl.yelpcdn.com/bphoto/t6G5WvniLO2HHD8Fq9_c7A/o.jpg", "is_closed": false, "url": "https://www.yelp.com/biz/xyst-new-york-2?adjust_creative=ZAJEiuIkp18KiB4opbwJtQ&utm_campaign=yelp_api_v3&utm_medium=api_v3_business_search&utm_source=ZAJEiuIkp18KiB4opbwJtQ", "review_count": 302, "categories": [{"alias": "vegan", "title": "Vegan"}, {"alias": "mediterranean", "title": "Mediterranean"}, {"alias": "vegetarian", "title": "Vegetarian"}], "rating": 4.5, "coordinates": {"latitude": 40.73874, "longitude": -73.99444}, "transactions": ["restaurant_reservation"], "price": "$$", "location": {"address1": "44 West 17th St", "address2": null, "address3": "", "city": "New York", "zip_code": "10011", "country": "US", "state": "NY", "display_address": ["44 West 17th St", "New York, NY 10011"]}, "phone": "+12127272979", "display_phone": "(212) 727-2979", "distance": 1000.7749768693045}, {"id": "yH49flYj7qk9JOX124uhFg", "alias": "mthr-vegan-new-york-2", "name": "MTHR Vegan", "image_url": "https://s3-media2.fl.yelpcdn.com/bphoto/7NOnN1MqUeJMxdEvnTiMMw/o.jpg", "is_closed": false, "url": "https://www.yelp.com/biz/mthr-vegan-new-york-2?adjust_creative=ZAJEiuIkp18KiB4opbwJtQ&utm_campaign=yelp_api_v3&utm_medium=api_v3_business_search&utm_source=ZAJEiuIkp18KiB4opbwJtQ", "review_count": 179, "categories": [{"alias": "vegan", "title": "Vegan"}], "rating": 4.5, "coordinates": {"latitude": 40.76241, "longitude": -73.98806}, "transactions": ["pickup", "delivery"], "price": "$$", "location": {"address1": "329 W 49th St", "address2": null, "address3": "", "city": "New York", "zip_code": "10019", "country": "US", "state": "NY", "display_address": ["329 W 49th St", "New York, NY 10019"]}, "phone": "+12127578600", "display_phone": "(212) 757-8600", "distance": 1904.3317974872143}, {"id": "7QNfgCS66llLCsVu_8VOyA", "alias": "vlife-new-york-2", "name": "VLife", "image_url": "https://s3-media2.fl.yelpcdn.com/bphoto/yH8NrbphyQ8BLKwX7CRyOA/o.jpg", "is_closed": false, "url": "https://www.yelp.com/biz/vlife-new-york-2?adjust_creative=ZAJEiuIkp18KiB4opbwJtQ&utm_campaign=yelp_api_v3&utm_medium=api_v3_business_search&utm_source=ZAJEiuIkp18KiB4opbwJtQ", "review_count": 349, "categories": [{"alias": "vegan", "title": "Vegan"}, {"alias": "vegetarian", "title": "Vegetarian"}, {"alias": "juicebars", "title": "Juice Bars & Smoothies"}], "rating": 4.0, "coordinates": {"latitude": 40.7481116799498, "longitude": -73.992917656414}, "transactions": ["pickup", "delivery"], "price": "$$", "location": {"address1": "348 7th Ave", "address2": "", "address3": "", "city": "New York", "zip_code": "10001", "country": "US", "state": "NY", "display_address": ["348 7th Ave", "New York, NY 10001"]}, "phone": "+12127601900", "display_phone": "(212) 760-1900", "distance": 467.0583823851496}, {"id": "SRlMTom32vVRkyvISUnnFQ", "alias": "the-cinnamon-snail-new-york-7", "name": "The Cinnamon Snail", "image_url": "https://s3-media1.fl.yelpcdn.com/bphoto/5-nW5fI85IesPNpZQ1s7SQ/o.jpg", "is_closed": false, "url": "https://www.yelp.com/biz/the-cinnamon-snail-new-york-7?adjust_creative=ZAJEiuIkp18KiB4opbwJtQ&utm_campaign=yelp_api_v3&utm_medium=api_v3_business_search&utm_source=ZAJEiuIkp18KiB4opbwJtQ", "review_count": 492, "categories": [{"alias": "vegan", "title": "Vegan"}, {"alias": "gluten_free", "title": "Gluten-Free"}, {"alias": "desserts", "title": "Desserts"}], "rating": 4.0, "coordinates": {"latitude": 40.7503205369552, "longitude": -73.9919686739076}, "transactions": [], "price": "$$", "location": {"address1": "2 Penn Plz", "address2": "", "address3": "The Pennsy", "city": "New York", "zip_code": "10001", "country": "US", "state": "NY", "display_address": ["2 Penn Plz", "The Pennsy", "New York, NY 10001"]}, "phone": "+18622466431", "display_phone": "(862) 246-6431", "distance": 638.7397494990773}, {"id": "YS8pw7sYOBqaW23FCOqecg", "alias": "glur-thai-new-york", "name": "GLUR Thai", "image_url": "https://s3-media1.fl.yelpcdn.com/bphoto/rMY6ci0ADi5lPGuBfqi5lw/o.jpg", "is_closed": false, "url": "https://www.yelp.com/biz/glur-thai-new-york?adjust_creative=ZAJEiuIkp18KiB4opbwJtQ&utm_campaign=yelp_api_v3&utm_medium=api_v3_business_search&utm_source=ZAJEiuIkp18KiB4opbwJtQ", "review_count": 40, "categories": [{"alias": "thai", "title": "Thai"}, {"alias": "vegan", "title": "Vegan"}], "rating": 4.5, "coordinates": {"latitude": 40.74121, "longitude": -73.99665}, "transactions": ["pickup", "delivery"], "location": {"address1": "144 W 19th St", "address2": null, "address3": "", "city": "New York", "zip_code": "10011", "country": "US", "state": "NY", "display_address": ["144 W 19th St", "New York, NY 10011"]}, "phone": "+12127389898", "display_phone": "(212) 738-9898", "distance": 690.1048899457562}, {"id": "CEEUDBFxvUPKGlA65qJ8JQ", "alias": "by-chloe-new-york-31", "name": "by CHLOE", "image_url": "https://s3-media2.fl.yelpcdn.com/bphoto/U5NiTGwM3ZACGwwd5G43bQ/o.jpg", "is_closed": false, "url": "https://www.yelp.com/biz/by-chloe-new-york-31?adjust_creative=ZAJEiuIkp18KiB4opbwJtQ&utm_campaign=yelp_api_v3&utm_medium=api_v3_business_search&utm_source=ZAJEiuIkp18KiB4opbwJtQ", "review_count": 754, "categories": [{"alias": "salad", "title": "Salad"}, {"alias": "vegan", "title": "Vegan"}, {"alias": "gluten_free", "title": "Gluten-Free"}], "rating": 4.0, "coordinates": {"latitude": 40.74197, "longitude": -73.99292}, "transactions": ["pickup", "delivery"], "price": "$$", "location": {"address1": "60 W 22nd St", "address2": null, "address3": null, "city": "New York", "zip_code": "10010", "country": "US", "state": "NY", "display_address": ["60 W 22nd St", "New York, NY 10010"]}, "phone": "+13476209622", "display_phone": "(347) 620-9622", "distance": 743.3981906152785}, {"id": "RABCwRzA1YCSpIWuk9LgqA", "alias": "urban-vegan-kitchen-new-york", "name": "Urban Vegan Kitchen", "image_url": "https://s3-media1.fl.yelpcdn.com/bphoto/E-r_FTdJcvLKbtKoL_6Q0w/o.jpg", "is_closed": false, "url": "https://www.yelp.com/biz/urban-vegan-kitchen-new-york?adjust_creative=ZAJEiuIkp18KiB4opbwJtQ&utm_campaign=yelp_api_v3&utm_medium=api_v3_business_search&utm_source=ZAJEiuIkp18KiB4opbwJtQ", "review_count": 404, "categories": [{"alias": "soulfood", "title": "Soul Food"}, {"alias": "vegan", "title": "Vegan"}, {"alias": "comfortfood", "title": "Comfort Food"}], "rating": 4.0, "coordinates": {"latitude": 40.7302, "longitude": -74.00368}, "transactions": ["pickup", "delivery"], "price": "$$", "location": {"address1": "41 Carmine St", "address2": null, "address3": "", "city": "New York", "zip_code": "10014", "country": "US", "state": "NY", "display_address": ["41 Carmine St", "New York, NY 10014"]}, "phone": "+16464389939", "display_phone": "(646) 438-9939", "distance": 1942.422657030321}, {"id": "KxyH5zvTyXawl17lHjA4SQ", "alias": "beyond-sushi-new-york-5", "name": "Beyond Sushi", "image_url": "https://s3-media1.fl.yelpcdn.com/bphoto/Y2XJ-D25hAw8UuRsIboIUg/o.jpg", "is_closed": false, "url": "https://www.yelp.com/biz/beyond-sushi-new-york-5?adjust_creative=ZAJEiuIkp18KiB4opbwJtQ&utm_campaign=yelp_api_v3&utm_medium=api_v3_business_search&utm_source=ZAJEiuIkp18KiB4opbwJtQ", "review_count": 467, "categories": [{"alias": "vegan", "title": "Vegan"}, {"alias": "sushi", "title": "Sushi Bars"}, {"alias": "kosher", "title": "Kosher"}], "rating": 4.5, "coordinates": {"latitude": 40.75247, "longitude": -73.98845}, "transactions": ["pickup", "delivery", "restaurant_reservation"], "price": "$$", "location": {"address1": "134 West 37th St", "address2": null, "address3": "", "city": "New York", "zip_code": "10018", "country": "US", "state": "NY", "display_address": ["134 West 37th St", "New York, NY 10018"]}, "phone": "+12125640869", "display_phone": "(212) 564-0869", "distance": 1004.0489816835207}, {"id": "tM8ZtEix8Bxg82AIKsHXcw", "alias": "zizi-new-york-3", "name": "Zizi", "image_url": "https://s3-media2.fl.yelpcdn.com/bphoto/zDPS4931jl9HPNL4A8tIYw/o.jpg", "is_closed": false, "url": "https://www.yelp.com/biz/zizi-new-york-3?adjust_creative=ZAJEiuIkp18KiB4opbwJtQ&utm_campaign=yelp_api_v3&utm_medium=api_v3_business_search&utm_source=ZAJEiuIkp18KiB4opbwJtQ", "review_count": 20, "categories": [{"alias": "mediterranean", "title": "Mediterranean"}, {"alias": "mideastern", "title": "Middle Eastern"}], "rating": 5.0, "coordinates": {"latitude": 40.74293, "longitude": -74.00002}, "transactions": ["pickup", "delivery", "restaurant_reservation"], "location": {"address1": "182 8th Ave", "address2": null, "address3": "", "city": "New York", "zip_code": "10011", "country": "US", "state": "NY", "display_address": ["182 8th Ave", "New York, NY 10011"]}, "phone": "+16464549710", "display_phone": "(646) 454-9710", "distance": 495.93440453305396}, {"id": "KXD44wWmrGf7mzyyr0bikw", "alias": "p-s-kitchen-new-york-3", "name": "P.S. Kitchen", "image_url": "https://s3-media2.fl.yelpcdn.com/bphoto/QcLe9hoAxhAQsh7fR0oqpw/o.jpg", "is_closed": false, "url": "https://www.yelp.com/biz/p-s-kitchen-new-york-3?adjust_creative=ZAJEiuIkp18KiB4opbwJtQ&utm_campaign=yelp_api_v3&utm_medium=api_v3_business_search&utm_source=ZAJEiuIkp18KiB4opbwJtQ", "review_count": 412, "categories": [{"alias": "vegetarian", "title": "Vegetarian"}, {"alias": "bars", "title": "Bars"}, {"alias": "vegan", "title": "Vegan"}], "rating": 4.0, "coordinates": {"latitude": 40.76066, "longitude": -73.98664}, "transactions": ["pickup", "delivery"], "price": "$$", "location": {"address1": "246 W 48th St", "address2": "", "address3": null, "city": "New York", "zip_code": "10036", "country": "US", "state": "NY", "display_address": ["246 W 48th St", "New York, NY 10036"]}, "phone": "+12126517247", "display_phone": "(212) 651-7247", "distance": 1793.0237371009564}, {"id": "LjBKkUSpMwrpo99hXgtHYw", "alias": "franchia-vegan-cafe-new-york", "name": "Franchia Vegan Cafe", "image_url": "https://s3-media3.fl.yelpcdn.com/bphoto/Yd_NNOOuxA7Ir7XIZaDk8g/o.jpg", "is_closed": false, "url": "https://www.yelp.com/biz/franchia-vegan-cafe-new-york?adjust_creative=ZAJEiuIkp18KiB4opbwJtQ&utm_campaign=yelp_api_v3&utm_medium=api_v3_business_search&utm_source=ZAJEiuIkp18KiB4opbwJtQ", "review_count": 902, "categories": [{"alias": "korean", "title": "Korean"}, {"alias": "vegan", "title": "Vegan"}, {"alias": "asianfusion", "title": "Asian Fusion"}], "rating": 4.0, "coordinates": {"latitude": 40.7474712051298, "longitude": -73.9812423408763}, "transactions": ["pickup", "delivery"], "price": "$$", "location": {"address1": "12 Park Ave", "address2": "", "address3": "", "city": "New York", "zip_code": "10016", "country": "US", "state": "NY", "display_address": ["12 Park Ave", "New York, NY 10016"]}, "phone": "+12122131001", "display_phone": "(212) 213-1001", "distance": 1434.931705530305}, {"id": "q7U2GCMWIZxIqWeMDml0LQ", "alias": "pure-ktchn-new-york", "name": "Pure Ktchn", "image_url": "https://s3-media1.fl.yelpcdn.com/bphoto/9oleAM1GRxlKCJrGGQSKcA/o.jpg", "is_closed": false, "url": "https://www.yelp.com/biz/pure-ktchn-new-york?adjust_creative=ZAJEiuIkp18KiB4opbwJtQ&utm_campaign=yelp_api_v3&utm_medium=api_v3_business_search&utm_source=ZAJEiuIkp18KiB4opbwJtQ", "review_count": 280, "categories": [{"alias": "salad", "title": "Salad"}, {"alias": "vegan", "title": "Vegan"}, {"alias": "vegetarian", "title": "Vegetarian"}], "rating": 4.5, "coordinates": {"latitude": 40.76053, "longitude": -73.98992}, "transactions": ["pickup", "delivery"], "price": "$$", "location": {"address1": "352 West 46th St", "address2": null, "address3": "", "city": "New York", "zip_code": "10036", "country": "US", "state": "NY", "display_address": ["352 West 46th St", "New York, NY 10036"]}, "phone": "+16467558502", "display_phone": "(646) 755-8502", "distance": 1630.1270534130365}, {"id": "xWUL-j6TQyKQHIfOtetu-Q", "alias": "hangawi-new-york", "name": "HanGawi", "image_url": "https://s3-media2.fl.yelpcdn.com/bphoto/twJ0jxVMtTJN3TfcAP1zmQ/o.jpg", "is_closed": false, "url": "https://www.yelp.com/biz/hangawi-new-york?adjust_creative=ZAJEiuIkp18KiB4opbwJtQ&utm_campaign=yelp_api_v3&utm_medium=api_v3_business_search&utm_source=ZAJEiuIkp18KiB4opbwJtQ", "review_count": 1139, "categories": [{"alias": "vegetarian", "title": "Vegetarian"}, {"alias": "korean", "title": "Korean"}, {"alias": "vegan", "title": "Vegan"}], "rating": 4.0, "coordinates": {"latitude": 40.746737, "longitude": -73.984662}, "transactions": [], "price": "$$$", "location": {"address1": "12 E 32nd St", "address2": "", "address3": "", "city": "New York", "zip_code": "10016", "country": "US", "state": "NY", "display_address": ["12 E 32nd St", "New York, NY 10016"]}, "phone": "+12122130077", "display_phone": "(212) 213-0077", "distance": 1152.2840677605163}, {"id": "6LJl5ZhPMmGZ5F1oe-6kEw", "alias": "le-botaniste-new-york-5", "name": "Le Botaniste", "image_url": "https://s3-media2.fl.yelpcdn.com/bphoto/coIEwXBu5Sk4iWDlQ1J2Vg/o.jpg", "is_closed": false, "url": "https://www.yelp.com/biz/le-botaniste-new-york-5?adjust_creative=ZAJEiuIkp18KiB4opbwJtQ&utm_campaign=yelp_api_v3&utm_medium=api_v3_business_search&utm_source=ZAJEiuIkp18KiB4opbwJtQ", "review_count": 44, "categories": [{"alias": "vegan", "title": "Vegan"}, {"alias": "vegetarian", "title": "Vegetarian"}, {"alias": "wine_bars", "title": "Wine Bars"}], "rating": 4.5, "coordinates": {"latitude": 40.75119, "longitude": -73.97436}, "transactions": ["pickup", "delivery"], "price": "$$", "location": {"address1": "666 Third Ave", "address2": null, "address3": "", "city": "New York", "zip_code": "10017", "country": "US", "state": "NY", "display_address": ["666 Third Ave", "New York, NY 10017"]}, "phone": "", "display_phone": "", "distance": 2044.7579031205323}, {"id": "PHMkwS5nmo4IUXbcg0OcAg", "alias": "jajaja-new-york-4", "name": "Jajaja", "image_url": "https://s3-media2.fl.yelpcdn.com/bphoto/uWbBN6yZcR5TMFY0W0RmYQ/o.jpg", "is_closed": false, "url": "https://www.yelp.com/biz/jajaja-new-york-4?adjust_creative=ZAJEiuIkp18KiB4opbwJtQ&utm_campaign=yelp_api_v3&utm_medium=api_v3_business_search&utm_source=ZAJEiuIkp18KiB4opbwJtQ", "review_count": 92, "categories": [{"alias": "mexican", "title": "Mexican"}, {"alias": "vegan", "title": "Vegan"}, {"alias": "bars", "title": "Bars"}], "rating": 4.5, "coordinates": {"latitude": 40.72979, "longitude": -74.00455}, "transactions": ["pickup", "delivery", "restaurant_reservation"], "price": "$$", "location": {"address1": "63 Carmine St", "address2": "", "address3": null, "city": "New York", "zip_code": "10014", "country": "US", "state": "NY", "display_address": ["63 Carmine St", "New York, NY 10014"]}, "phone": "+19172620184", "display_phone": "(917) 262-0184", "distance": 1995.7213967944535}, {"id": "1gK-0_lGqjxbwiHWcXXdzg", "alias": "abcv-new-york-2", "name": "ABCV", "image_url": "https://s3-media2.fl.yelpcdn.com/bphoto/tX-W0xtvowSoEMyAXoQPeA/o.jpg", "is_closed": false, "url": "https://www.yelp.com/biz/abcv-new-york-2?adjust_creative=ZAJEiuIkp18KiB4opbwJtQ&utm_campaign=yelp_api_v3&utm_medium=api_v3_business_search&utm_source=ZAJEiuIkp18KiB4opbwJtQ", "review_count": 486, "categories": [{"alias": "newamerican", "title": "American (New)"}, {"alias": "bars", "title": "Bars"}, {"alias": "vegan", "title": "Vegan"}], "rating": 4.0, "coordinates": {"latitude": 40.7379039812942, "longitude": -73.9888740099824}, "transactions": [], "price": "$$$", "location": {"address1": "38 E 19th St", "address2": "", "address3": null, "city": "New York", "zip_code": "10003", "country": "US", "state": "NY", "display_address": ["38 E 19th St", "New York, NY 10003"]}, "phone": "+12124755829", "display_phone": "(212) 475-5829", "distance": 1304.1148944047432}, {"id": "9DceMTrjyVqBgQRqgR6GWw", "alias": "red-bamboo-new-york", "name": "Red Bamboo", "image_url": "https://s3-media3.fl.yelpcdn.com/bphoto/F7newcII99zOvOH0YFRAvw/o.jpg", "is_closed": false, "url": "https://www.yelp.com/biz/red-bamboo-new-york?adjust_creative=ZAJEiuIkp18KiB4opbwJtQ&utm_campaign=yelp_api_v3&utm_medium=api_v3_business_search&utm_source=ZAJEiuIkp18KiB4opbwJtQ", "review_count": 1691, "categories": [{"alias": "vegetarian", "title": "Vegetarian"}, {"alias": "soulfood", "title": "Soul Food"}, {"alias": "vegan", "title": "Vegan"}], "rating": 4.0, "coordinates": {"latitude": 40.7313183707867, "longitude": -74.0003546456233}, "transactions": [], "price": "$$", "location": {"address1": "140 W 4th St", "address2": "", "address3": "", "city": "New York", "zip_code": "10012", "country": "US", "state": "NY", "display_address": ["140 W 4th St", "New York, NY 10012"]}, "phone": "+12122601212", "display_phone": "(212) 260-1212", "distance": 1773.2245790016057}, {"id": "GtfhGhWmr1kQ4EnFTlwg7w", "alias": "by-chloe-new-york-32", "name": "by CHLOE", "image_url": "https://s3-media4.fl.yelpcdn.com/bphoto/ZhSQpEI-TfCIIbfKlvxyzA/o.jpg", "is_closed": false, "url": "https://www.yelp.com/biz/by-chloe-new-york-32?adjust_creative=ZAJEiuIkp18KiB4opbwJtQ&utm_campaign=yelp_api_v3&utm_medium=api_v3_business_search&utm_source=ZAJEiuIkp18KiB4opbwJtQ", "review_count": 1653, "categories": [{"alias": "vegan", "title": "Vegan"}, {"alias": "salad", "title": "Salad"}, {"alias": "gluten_free", "title": "Gluten-Free"}], "rating": 4.0, "coordinates": {"latitude": 40.729219, "longitude": -74.001021}, "transactions": ["pickup", "delivery"], "price": "$$", "location": {"address1": "185 Bleecker St", "address2": "", "address3": "", "city": "New York", "zip_code": "10012", "country": "US", "state": "NY", "display_address": ["185 Bleecker St", "New York, NY 10012"]}, "phone": "+12122908000", "display_phone": "(212) 290-8000", "distance": 2011.2636810508657}, {"id": "9E5i1t-X9DbCnVQrczkkTA", "alias": "blossom-du-jour-new-york", "name": "Blossom Du Jour", "image_url": "https://s3-media2.fl.yelpcdn.com/bphoto/aIIWVAh0xdXcVjd4F7VtbA/o.jpg", "is_closed": false, "url": "https://www.yelp.com/biz/blossom-du-jour-new-york?adjust_creative=ZAJEiuIkp18KiB4opbwJtQ&utm_campaign=yelp_api_v3&utm_medium=api_v3_business_search&utm_source=ZAJEiuIkp18KiB4opbwJtQ", "review_count": 403, "categories": [{"alias": "vegan", "title": "Vegan"}, {"alias": "juicebars", "title": "Juice Bars & Smoothies"}, {"alias": "breakfast_brunch", "title": "Breakfast & Brunch"}], "rating": 4.0, "coordinates": {"latitude": 40.759613, "longitude": -73.992088}, "transactions": ["pickup", "delivery"], "price": "$$", "location": {"address1": "617 9th Ave", "address2": "", "address3": "", "city": "New York", "zip_code": "10036", "country": "US", "state": "NY", "display_address": ["617 9th Ave", "New York, NY 10036"]}, "phone": "+16469983535", "display_phone": "(646) 998-3535", "distance": 1477.8429761725747}], "total": 2200, "region": {"center": {"longitude": -73.99832725524902, "latitude": 40.747191222476324}}}